{
  "selectTemplate": [
    "index"
  ],
  "name": "demo",
  "abe_meta": {
    "template": "index",
    "link": "/demo.html",
    "date": "2016-11-30T00:14:04.208Z",
    "latest": {
      "date": "2016-11-30T00:14:37.618Z",
      "abeUrl": "/demo-abe-d20161130T001437618Z.html"
    },
    "status": "draft",
    "draft": {
      "latest": {
        "date": "2016-11-30T00:14:37.618Z",
        "abeUrl": "/demo-abe-d20161130T001437618Z.html"
      },
      "date": "2016-11-30T00:14:04.208Z",
      "abeUrl": "/demo-abe-d20161130T001404208Z.html"
    },
    "complete": "100",
    "cleanName": "demo",
    "cleanFilename": ""
  },
  "abeEditor": "true",
  "gmaps": [
    {
      "address_components": [
        {
          "long_name": "Paris",
          "short_name": "Paris",
          "types": [
            "colloquial_area",
            "political"
          ]
        },
        {
          "long_name": "Aisne",
          "short_name": "Aisne",
          "types": [
            "administrative_area_level_2",
            "political"
          ]
        },
        {
          "long_name": "Nord-Pas-de-Calais Picardie",
          "short_name": "Nord-Pas-de-Calais Picardie",
          "types": [
            "administrative_area_level_1",
            "political"
          ]
        },
        {
          "long_name": "France",
          "short_name": "FR",
          "types": [
            "country",
            "political"
          ]
        },
        {
          "long_name": "02310",
          "short_name": "02310",
          "types": [
            "postal_code"
          ]
        }
      ],
      "formatted_address": "Paris, 02310, France",
      "geometry": {
        "location": {
          "lat": "49.036934",
          "lng": "3.253362"
        },
        "location_type": "APPROXIMATE",
        "viewport": {
          "northeast": {
            "lat": "49.0382829802915",
            "lng": "3.254710980291502"
          },
          "southwest": {
            "lat": "49.0355850197085",
            "lng": "3.252013019708498"
          }
        }
      },
      "partial_match": "true",
      "place_id": "ChIJ295VIavr6EcRAHHEP9Cq2c0",
      "types": [
        "colloquial_area",
        "political"
      ]
    },
    {
      "address_components": [
        {
          "long_name": "Berlin",
          "short_name": "Berlin",
          "types": [
            "locality",
            "political"
          ]
        },
        {
          "long_name": "Berlin",
          "short_name": "Berlin",
          "types": [
            "administrative_area_level_1",
            "political"
          ]
        },
        {
          "long_name": "Germany",
          "short_name": "DE",
          "types": [
            "country",
            "political"
          ]
        }
      ],
      "formatted_address": "Berlin, Germany",
      "geometry": {
        "bounds": {
          "northeast": {
            "lat": "52.6754542",
            "lng": "13.7611175"
          },
          "southwest": {
            "lat": "52.338234",
            "lng": "13.088346"
          }
        },
        "location": {
          "lat": "52.52000659999999",
          "lng": "13.404954"
        },
        "location_type": "APPROXIMATE",
        "viewport": {
          "northeast": {
            "lat": "52.6754542",
            "lng": "13.7611175"
          },
          "southwest": {
            "lat": "52.33962959999999",
            "lng": "13.0911719"
          }
        }
      },
      "place_id": "ChIJAVkDPzdOqEcRcDteW0YgIQQ",
      "types": [
        "locality",
        "political"
      ]
    },
    {
      "address_components": [
        {
          "long_name": "Budapest",
          "short_name": "Budapest",
          "types": [
            "locality",
            "political"
          ]
        },
        {
          "long_name": "Budapest",
          "short_name": "Budapest",
          "types": [
            "administrative_area_level_2",
            "political"
          ]
        },
        {
          "long_name": "Budapest",
          "short_name": "Budapest",
          "types": [
            "administrative_area_level_1",
            "political"
          ]
        },
        {
          "long_name": "Hungary",
          "short_name": "HU",
          "types": [
            "country",
            "political"
          ]
        }
      ],
      "formatted_address": "Budapest, Hungary",
      "geometry": {
        "bounds": {
          "northeast": {
            "lat": "47.6130119",
            "lng": "19.334505"
          },
          "southwest": {
            "lat": "47.349415",
            "lng": "18.9261011"
          }
        },
        "location": {
          "lat": "47.497912",
          "lng": "19.040235"
        },
        "location_type": "APPROXIMATE",
        "viewport": {
          "northeast": {
            "lat": "47.6130119",
            "lng": "19.3345049"
          },
          "southwest": {
            "lat": "47.349415",
            "lng": "18.9261011"
          }
        }
      },
      "partial_match": "true",
      "place_id": "ChIJyc_U0TTDQUcRYBEeDCnEAAQ",
      "types": [
        "locality",
        "political"
      ]
    }
  ],
  "oldFilePath": "/demo.html"
}
